{
  "stadiums": [
    {
      "id": "estadio_azteca",
      "name": "Estadio Azteca",
      "city": "Mexico City",
      "state": "CDMX",
      "country": "Mexico",
      "countryCode": "MX",
      "timezone": "America/Mexico_City",
      "capacity": 87523,
      "latitude": 19.3029,
      "longitude": -99.1505,
      "surfaceType": "Natural grass",
      "yearBuilt": 1966,
      "fifaName": "Mexico City Stadium"
    },
    {
      "id": "estadio_akron",
      "name": "Estadio Akron",
      "city": "Guadalajara",
      "state": "Jalisco",
      "country": "Mexico",
      "countryCode": "MX",
      "timezone": "America/Mexico_City",
      "capacity": 49850,
      "latitude": 20.6819,
      "longitude": -103.4624,
      "surfaceType": "Natural grass",
      "yearBuilt": 2010,
      "fifaName": "Guadalajara Stadium"
    },
    {
      "id": "estadio_bbva",
      "name": "Estadio BBVA",
      "city": "Monterrey",
      "state": "Nuevo León",
      "country": "Mexico",
      "countryCode": "MX",
      "timezone": "America/Monterrey",
      "capacity": 53500,
      "latitude": 25.6672,
      "longitude": -100.2453,
      "surfaceType": "Natural grass",
      "yearBuilt": 2015,
      "fifaName": "Monterrey Stadium"
    },
    {
      "id": "metlife_stadium",
      "name": "MetLife Stadium",
      "city": "East Rutherford",
      "state": "New Jersey",
      "country": "United States",
      "countryCode": "US",
      "timezone": "America/New_York",
      "capacity": 82500,
      "latitude": 40.8135,
      "longitude": -74.0745,
      "surfaceType": "Artificial turf (replaced for WC)",
      "yearBuilt": 2010,
      "fifaName": "New York New Jersey Stadium"
    },
    {
      "id": "sofi_stadium",
      "name": "SoFi Stadium",
      "city": "Inglewood",
      "state": "California",
      "country": "United States",
      "countryCode": "US",
      "timezone": "America/Los_Angeles",
      "capacity": 70240,
      "latitude": 33.9535,
      "longitude": -118.3392,
      "surfaceType": "Natural grass",
      "yearBuilt": 2020,
      "fifaName": "Los Angeles Stadium"
    },
    {
      "id": "att_stadium",
      "name": "AT&T Stadium",
      "city": "Arlington",
      "state": "Texas",
      "country": "United States",
      "countryCode": "US",
      "timezone": "America/Chicago",
      "capacity": 80000,
      "latitude": 32.7473,
      "longitude": -97.0945,
      "surfaceType": "Artificial turf (replaced for WC)",
      "yearBuilt": 2009,
      "fifaName": "Dallas Stadium"
    },
    {
      "id": "mercedes_benz_stadium",
      "name": "Mercedes-Benz Stadium",
      "city": "Atlanta",
      "state": "Georgia",
      "country": "United States",
      "countryCode": "US",
      "timezone": "America/New_York",
      "capacity": 71000,
      "latitude": 33.7554,
      "longitude": -84.4010,
      "surfaceType": "Artificial turf (replaced for WC)",
      "yearBuilt": 2017,
      "fifaName": "Atlanta Stadium"
    },
    {
      "id": "arrowhead_stadium",
      "name": "Arrowhead Stadium",
      "city": "Kansas City",
      "state": "Missouri",
      "country": "United States",
      "countryCode": "US",
      "timezone": "America/Chicago",
      "capacity": 76416,
      "latitude": 39.0489,
      "longitude": -94.4839,
      "surfaceType": "Natural grass",
      "yearBuilt": 1972,
      "fifaName": "Kansas City Stadium"
    },
    {
      "id": "nrg_stadium",
      "name": "NRG Stadium",
      "city": "Houston",
      "state": "Texas",
      "country": "United States",
      "countryCode": "US",
      "timezone": "America/Chicago",
      "capacity": 72220,
      "latitude": 29.6847,
      "longitude": -95.4107,
      "surfaceType": "Natural grass",
      "yearBuilt": 2002,
      "fifaName": "Houston Stadium"
    },
    {
      "id": "lincoln_financial_field",
      "name": "Lincoln Financial Field",
      "city": "Philadelphia",
      "state": "Pennsylvania",
      "country": "United States",
      "countryCode": "US",
      "timezone": "America/New_York",
      "capacity": 69176,
      "latitude": 39.9007,
      "longitude": -75.1674,
      "surfaceType": "Natural grass",
      "yearBuilt": 2003,
      "fifaName": "Philadelphia Stadium"
    },
    {
      "id": "levis_stadium",
      "name": "Levi's Stadium",
      "city": "Santa Clara",
      "state": "California",
      "country": "United States",
      "countryCode": "US",
      "timezone": "America/Los_Angeles",
      "capacity": 68500,
      "latitude": 37.4033,
      "longitude": -121.9694,
      "surfaceType": "Natural grass",
      "yearBuilt": 2014,
      "fifaName": "San Francisco Bay Area Stadium"
    },
    {
      "id": "hard_rock_stadium",
      "name": "Hard Rock Stadium",
      "city": "Miami Gardens",
      "state": "Florida",
      "country": "United States",
      "countryCode": "US",
      "timezone": "America/New_York",
      "capacity": 65326,
      "latitude": 25.9580,
      "longitude": -80.2389,
      "surfaceType": "Natural grass",
      "yearBuilt": 1987,
      "fifaName": "Miami Stadium"
    },
    {
      "id": "lumen_field",
      "name": "Lumen Field",
      "city": "Seattle",
      "state": "Washington",
      "country": "United States",
      "countryCode": "US",
      "timezone": "America/Los_Angeles",
      "capacity": 69000,
      "latitude": 47.5952,
      "longitude": -122.3316,
      "surfaceType": "Artificial turf (replaced for WC)",
      "yearBuilt": 2002,
      "fifaName": "Seattle Stadium"
    },
    {
      "id": "gillette_stadium",
      "name": "Gillette Stadium",
      "city": "Foxborough",
      "state": "Massachusetts",
      "country": "United States",
      "countryCode": "US",
      "timezone": "America/New_York",
      "capacity": 65878,
      "latitude": 42.0909,
      "longitude": -71.2643,
      "surfaceType": "Artificial turf (replaced for WC)",
      "yearBuilt": 2002,
      "fifaName": "Boston Stadium"
    },
    {
      "id": "bmo_field",
      "name": "BMO Field",
      "city": "Toronto",
      "state": "Ontario",
      "country": "Canada",
      "countryCode": "CA",
      "timezone": "America/Toronto",
      "capacity": 45736,
      "latitude": 43.6332,
      "longitude": -79.4186,
      "surfaceType": "Natural grass",
      "yearBuilt": 2007,
      "fifaName": "Toronto Stadium"
    },
    {
      "id": "bc_place",
      "name": "BC Place",
      "city": "Vancouver",
      "state": "British Columbia",
      "country": "Canada",
      "countryCode": "CA",
      "timezone": "America/Vancouver",
      "capacity": 54500,
      "latitude": 49.2768,
      "longitude": -123.1117,
      "surfaceType": "Artificial turf (replaced for WC)",
      "yearBuilt": 1983,
      "fifaName": "Vancouver Stadium"
    }
  ]
}
